[{
    
        "location": "terminal test",
        "pk": 0,
        "is_active": true,
        "longitude": "77.5833",
        "details": "",
        "stop_type": "starting_station",
        "latitude": "-26.91166740"
    
},{
        "location": "Terminal Aterro",
        "pk":1,
        "is_active": true,
        "longitude": "-49.09508560",
        "details": "",
        "stop_type": "bus-station",
        "latitude": "-26.87138820"
},{
        "location": "Terminal da Fonte",
        "pk": 2,
        "is_active": true,
        "longitude": "-49.05839990",
        "details": "",
        "stop_type": "bus-station",
        "latitude": "-26.92863020"
}, {
        "location": "Terminal da Fortaleza",
        "pk":3,
        "is_active": true,
        "longitude": "-49.06688340",
        "details": "",
        "stop_type": "bus-station",
        "latitude": "-26.87936490"
}, {
        "location": "Terminal da Velha",
        "pk": 4,
        "is_active": true,
        "longitude": "-49.13025130",
        "details": "",
        "stop_type": "bus-station",
        "latitude": "-26.93443250"
}, {
        "location": "Terminal Garcia",
        "pk": 5,
        "is_active": true,
        "longitude": "-49.06536180",
        "details": "",
        "stop_type": "bus-station",
        "latitude": "-26.96235820"
}, {
        "location": "Estacionamento Gloria",
        "pk": 6,
        "is_active": true,
        "longitude": "-49.08229060",
        "details": "Estacionamento ao lado do BIG",
        "stop_type": "garage",
        "latitude": "-26.91315980"
}, {
        "location": "Ponto Newboling",
        "pk":7,
        "is_active": true,
        "longitude": "-49.06775870",
        "details": "Ponto em frente ao Newboling na 7 de Setembro",
        "stop_type": "ending_station",
        "latitude": "-26.92060830"
}]
